stop_id,stop_name,lat,lon,zone_id,stop_url,wheelchair_boarding
GENEVA,Geneva,41.8816667,-88.31,H,https://metrarail.com/maps-schedules/train-lines/UP-W/stations/GENEVA,1
WCHICAGO,West Chicago,41.8811111,-88.1988889,F,https://metrarail.com/maps-schedules/train-lines/UP-W/stations/WCHICAGO,1
WINFIELD,Winfield,41.87,-88.1569444,F,https://metrarail.com/maps-schedules/train-lines/UP-W/stations/WINFIELD,1
WHEATON,Wheaton,41.8644444,-88.1119444,E,https://metrarail.com/maps-schedules/train-lines/UP-W/stations/WHEATON,1
COLLEGEAVE,College Ave,41.8683333,-88.0902778,E,https://metrarail.com/maps-schedules/train-lines/UP-W/stations/COLLEGEAVE,1
GLENELLYN,Glen Ellyn,41.8766667,-88.0647222,E,https://metrarail.com/maps-schedules/train-lines/UP-W/stations/GLENELLYN,1
LOMBARD,Lombard,41.8866667,-88.0186111,D,https://metrarail.com/maps-schedules/train-lines/UP-W/stations/LOMBARD,1
VILLAPARK,Villa Park,41.8963889,-87.9775,D,https://metrarail.com/maps-schedules/train-lines/UP-W/stations/VILLAPARK,1
ELMHURST,Elmhurst,41.8997222,-87.9408333,D,https://metrarail.com/maps-schedules/train-lines/UP-W/stations/ELMHURST,1
BERKELEY,Berkeley,41.8961111,-87.9152778,C,https://metrarail.com/maps-schedules/train-lines/UP-W/stations/BERKELEY,1
BELLWOOD,Bellwood,41.8913889,-87.8825,C,https://metrarail.com/maps-schedules/train-lines/UP-W/stations/BELLWOOD,1
MELROSEPK,Melrose Park,41.8902778,-87.8555556,C,https://metrarail.com/maps-schedules/train-lines/UP-W/stations/MELROSEPK,1
MAYWOOD,Maywood,41.8883333,-87.8386111,C,https://metrarail.com/maps-schedules/train-lines/UP-W/stations/MAYWOOD,1
RIVRFOREST,River Forest,41.8869444,-87.825,B,https://metrarail.com/maps-schedules/train-lines/UP-W/stations/RIVRFOREST,0
OAKPARK,Oak Park,41.8869444,-87.8011111,B,https://metrarail.com/maps-schedules/train-lines/UP-W/stations/OAKPARK,1
KEDZIE,Kedzie,41.8883333,-87.7069444,A,https://metrarail.com/maps-schedules/train-lines/UP-W/stations/KEDZIE,0
AURORA,Aurora,41.7608333,-88.3083333,H,https://metrarail.com/maps-schedules/train-lines/BNSF/stations/AURORA,1
ROUTE59,Route 59,41.7777778,-88.2086111,G,https://metrarail.com/maps-schedules/train-lines/BNSF/stations/ROUTE59,1
NAPERVILLE,Naperville,41.7797222,-88.1455556,F,https://metrarail.com/maps-schedules/train-lines/BNSF/stations/NAPERVILLE,1
LISLE,Lisle,41.7977778,-88.0719444,E,https://metrarail.com/maps-schedules/train-lines/BNSF/stations/LISLE,1
BELMONT,Belmont,41.7952778,-88.0380556,E,https://metrarail.com/maps-schedules/train-lines/BNSF/stations/BELMONT,1
MAINST-DG,Downers Grove,41.7952778,-88.0097222,E,https://metrarail.com/maps-schedules/train-lines/BNSF/stations/MAINST-DG,1
FAIRVIEWDG,Fairview Ave.,41.7952778,-87.9936111,E,https://metrarail.com/maps-schedules/train-lines/BNSF/stations/FAIRVIEWDG,1
WESTMONT,Westmont,41.7955556,-87.9763889,D,https://metrarail.com/maps-schedules/train-lines/BNSF/stations/WESTMONT,1
CLARNDNHIL,Clarendon Hills,41.7969444,-87.9536111,D,https://metrarail.com/maps-schedules/train-lines/BNSF/stations/CLARNDNHIL,1
WHINSDALE,West Hinsdale,41.7988889,-87.9452778,D,https://metrarail.com/maps-schedules/train-lines/BNSF/stations/WHINSDALE,1
HINSDALE,Hinsdale,41.8027778,-87.9283333,D,https://metrarail.com/maps-schedules/train-lines/BNSF/stations/HINSDALE,1
HIGHLANDS,Highlands,41.805,-87.9183333,D,https://metrarail.com/maps-schedules/train-lines/BNSF/stations/HIGHLANDS,0
WESTSPRING,Western Springs,41.8088889,-87.9011111,D,https://metrarail.com/maps-schedules/train-lines/BNSF/stations/WESTSPRING,1
STONEAVE,Stone Ave.,41.8141667,-87.8783333,C,https://metrarail.com/maps-schedules/train-lines/BNSF/stations/STONEAVE,0
LAGRANGE,LaGrange Road,41.8158333,-87.8711111,C,https://metrarail.com/maps-schedules/train-lines/BNSF/stations/LAGRANGE,1
CONGRESSPK,Congress Park,41.8188889,-87.8575,C,https://metrarail.com/maps-schedules/train-lines/BNSF/stations/CONGRESSPK,0
BROOKFIELD,Brookfield,41.8219444,-87.8430556,C,https://metrarail.com/maps-schedules/train-lines/BNSF/stations/BROOKFIELD,1
HOLLYWOOD,Hollywood,41.8244444,-87.8338889,C,https://metrarail.com/maps-schedules/train-lines/BNSF/stations/HOLLYWOOD,1
RIVERSIDE,Riverside,41.8272222,-87.82,C,https://metrarail.com/maps-schedules/train-lines/BNSF/stations/RIVERSIDE,1
HARLEM,Harlem Ave.,41.8313889,-87.8019444,B,https://metrarail.com/maps-schedules/train-lines/BNSF/stations/HARLEM,1
BERWYN,Berwyn,41.8330556,-87.7936111,B,https://metrarail.com/maps-schedules/train-lines/BNSF/stations/BERWYN,1
LAVERGNE,Lavergne,41.8355556,-87.7833333,B,https://metrarail.com/maps-schedules/train-lines/BNSF/stations/LAVERGNE,1
CICERO,Cicero,41.8441667,-87.7455556,B,https://metrarail.com/maps-schedules/train-lines/BNSF/stations/CICERO,0
BNWESTERN,Western Avenue,41.8577778,-87.6852778,A,https://metrarail.com/maps-schedules/train-lines/BNSF/stations/BNWESTERN,0
HALSTED,Halsted Street,41.8602778,-87.6472222,A,https://metrarail.com/maps-schedules/train-lines/BNSF/stations/HALSTED,0
JOLIET,Joliet,41.5244444,-88.0797222,H,https://metrarail.com/maps-schedules/train-lines/RI/stations/JOLIET,1
LOCKPORT,Lockport,41.585,-88.0602778,G,https://metrarail.com/maps-schedules/train-lines/HC/stations/LOCKPORT,1
LEMONT,Lemont,41.6736111,-88.0025,E,https://metrarail.com/maps-schedules/train-lines/HC/stations/LEMONT,1
WILLOWSPRN,Willow Springs,41.7333333,-87.8783333,D,https://metrarail.com/maps-schedules/train-lines/HC/stations/WILLOWSPRN,1
SUMMIT,Summit,41.795,-87.8097222,C,https://metrarail.com/maps-schedules/train-lines/HC/stations/SUMMIT,1
179TH-SWS,Orland Park 179th,41.5638889,-87.9025,F,https://metrarail.com/maps-schedules/train-lines/SWS/stations/179TH-SWS,1
153RD-SWS,Orland Park 153rd,41.6094444,-87.8733333,E,https://metrarail.com/maps-schedules/train-lines/SWS/stations/153RD-SWS,1
143RD-SWS,Orland Park 143rd,41.6305556,-87.8591667,E,https://metrarail.com/maps-schedules/train-lines/SWS/stations/143RD-SWS,1
PALOSPARK,Palos Park,41.6688889,-87.8202778,E,https://metrarail.com/maps-schedules/train-lines/SWS/stations/PALOSPARK,1
WORTH,Worth,41.6913889,-87.7958333,D,https://metrarail.com/maps-schedules/train-lines/SWS/stations/WORTH,1
CHICRIDGE,Chicago Ridge,41.7033333,-87.7802778,D,https://metrarail.com/maps-schedules/train-lines/SWS/stations/CHICRIDGE,1
OAKLAWN,Oak Lawn Patriot,41.7194444,-87.7486111,D,https://metrarail.com/maps-schedules/train-lines/SWS/stations/OAKLAWN,1
ASHBURN,Ashburn,41.7416667,-87.7125,C,https://metrarail.com/maps-schedules/train-lines/SWS/stations/ASHBURN,1
WRIGHTWOOD,Wrightwood,41.7488889,-87.7036111,C,https://metrarail.com/maps-schedules/train-lines/SWS/stations/WRIGHTWOOD,1
CLYBOURN,Clybourn,41.9169444,-87.6680556,A,https://metrarail.com/maps-schedules/train-lines/UP-N/stations/CLYBOURN,0
RAVENSWOOD,Ravenswood,41.9683333,-87.6744444,B,https://metrarail.com/maps-schedules/train-lines/UP-N/stations/RAVENSWOOD,0
ROGERPK,Rogers Park,42.0094444,-87.6755556,B,https://metrarail.com/maps-schedules/train-lines/UP-N/stations/ROGERPK,1
MAINST,Main St.,42.0333333,-87.68,C,https://metrarail.com/maps-schedules/train-lines/UP-N/stations/MAINST,1
EVANSTON,Evanston (Davis St.),42.0480556,-87.6847222,C,https://metrarail.com/maps-schedules/train-lines/UP-N/stations/EVANSTON,1
CENTRALST,Central St.,42.0641667,-87.6980556,C,https://metrarail.com/maps-schedules/train-lines/UP-N/stations/CENTRALST,1
WILMETTE,Wilmette,42.0772222,-87.7091667,C,https://metrarail.com/maps-schedules/train-lines/UP-N/stations/WILMETTE,1
KENILWORTH,Kenilworth,42.0863889,-87.7166667,D,https://metrarail.com/maps-schedules/train-lines/UP-N/stations/KENILWORTH,1
WINNETKA,Winnetka,42.1052778,-87.7327778,D,https://metrarail.com/maps-schedules/train-lines/UP-N/stations/WINNETKA,1
HUBARDWOOD,Hubbard Woods,42.1180556,-87.7436111,D,https://metrarail.com/maps-schedules/train-lines/UP-N/stations/HUBARDWOOD,0
GLENCOE,Glencoe,42.1355556,-87.7580556,D,https://metrarail.com/maps-schedules/train-lines/UP-N/stations/GLENCOE,1
BRAESIDE,Braeside,42.1527778,-87.7725,E,https://metrarail.com/maps-schedules/train-lines/UP-N/stations/BRAESIDE,1
RAVINIA,Ravinia,42.165,-87.7827778,E,https://metrarail.com/maps-schedules/train-lines/UP-N/stations/RAVINIA,1
HIGHLANDPK,Highland Park,42.1833333,-87.7975,E,https://metrarail.com/maps-schedules/train-lines/UP-N/stations/HIGHLANDPK,1
HIGHWOOD,Highwood,42.2033333,-87.8105556,E,https://metrarail.com/maps-schedules/train-lines/UP-N/stations/HIGHWOOD,1
FTSHERIDAN,Fort Sheridan,42.2175,-87.8208333,F,https://metrarail.com/maps-schedules/train-lines/UP-N/stations/FTSHERIDAN,1
LKFOREST,Lake Forest.,42.2525,-87.8397222,F,https://metrarail.com/maps-schedules/train-lines/UP-N/stations/LKFOREST,1
LAKEBLUFF,Lake Bluff,42.2797222,-87.8466667,G,https://metrarail.com/maps-schedules/train-lines/UP-N/stations/LAKEBLUFF,1
GRTLAKES,Great Lakes,42.3069444,-87.8463889,G,https://metrarail.com/maps-schedules/train-lines/UP-N/stations/GRTLAKES,1
NCHICAGO,North Chicago,42.3286111,-87.8369444,G,https://metrarail.com/maps-schedules/train-lines/UP-N/stations/NCHICAGO,1
WAUKEGAN,Waukegan,42.3605556,-87.8283333,H,https://metrarail.com/maps-schedules/train-lines/UP-N/stations/WAUKEGAN,1
ZION,Zion,42.4491667,-87.8180556,I,https://metrarail.com/maps-schedules/train-lines/UP-N/stations/ZION,1
WINTHROP,Winthrop Harbor,42.4827778,-87.8161111,I,https://metrarail.com/maps-schedules/train-lines/UP-N/stations/WINTHROP,1
FOXLAKE,Fox Lake,42.3983333,-88.1822222,J,https://metrarail.com/maps-schedules/train-lines/MD-N/stations/FOXLAKE,1
INGLESIDE,Ingleside,42.3838889,-88.1536111,J,https://metrarail.com/maps-schedules/train-lines/MD-N/stations/INGLESIDE,1
LONGLAKE,Long Lake,42.3680556,-88.1280556,J,https://metrarail.com/maps-schedules/train-lines/MD-N/stations/LONGLAKE,1
ROUNDLAKE,Round Lake,42.3544444,-88.0941667,I,https://metrarail.com/maps-schedules/train-lines/MD-N/stations/ROUNDLAKE,1
GRAYSLAKE,Grayslake,42.3336111,-88.0433333,I,https://metrarail.com/maps-schedules/train-lines/MD-N/stations/GRAYSLAKE,1
LIBERTYVIL,Libertyville,42.2911111,-87.9563889,H,https://metrarail.com/maps-schedules/train-lines/MD-N/stations/LIBERTYVIL,1
LAKEFRST,Lake Forest,42.2236111,-87.8747222,F,https://metrarail.com/maps-schedules/train-lines/MD-N/stations/LAKEFRST,1
DEERFIELD,Deerfield,42.1680556,-87.85,E,https://metrarail.com/maps-schedules/train-lines/MD-N/stations/DEERFIELD,1
LAKECOOKRD,Lake-Cook,42.1516667,-87.8413889,E,https://metrarail.com/maps-schedules/train-lines/MD-N/stations/LAKECOOKRD,1
NBROOK,Northbrook,42.1269444,-87.8277778,E,https://metrarail.com/maps-schedules/train-lines/MD-N/stations/NBROOK,1
NGLENVIEW,Glen/N. Glenview,42.0975,-87.8158333,D,https://metrarail.com/maps-schedules/train-lines/MD-N/stations/NGLENVIEW,1
GLENVIEW,Glenview,42.075,-87.8055556,D,https://metrarail.com/maps-schedules/train-lines/MD-N/stations/GLENVIEW,1
GOLF,Golf,42.0583333,-87.7969444,D,https://metrarail.com/maps-schedules/train-lines/MD-N/stations/GOLF,1
MORTONGRV,Morton Grove,42.035,-87.7852778,C,https://metrarail.com/maps-schedules/train-lines/MD-N/stations/MORTONGRV,1
EDGEBROOK,Edgebrook,41.9977778,-87.7655556,C,https://metrarail.com/maps-schedules/train-lines/MD-N/stations/EDGEBROOK,1
FORESTGLEN,Forest Glen,41.9780556,-87.7555556,C,https://metrarail.com/maps-schedules/train-lines/MD-N/stations/FORESTGLEN,0
MAYFAIR,Mayfair,41.9597222,-87.7458333,B,https://metrarail.com/maps-schedules/train-lines/MD-N/stations/MAYFAIR,0
GRAYLAND,Grayland,41.9488889,-87.7402778,B,https://metrarail.com/maps-schedules/train-lines/MD-N/stations/GRAYLAND,0
HEALY,Healy,41.9247222,-87.7277778,B,https://metrarail.com/maps-schedules/train-lines/MD-N/stations/HEALY,1
WESTERNAVE,Western Ave,41.8891667,-87.6880556,A,https://metrarail.com/maps-schedules/train-lines/MD-N/stations/WESTERNAVE,1
RAVINIAPK,Ravinia Park,42.1580556,-87.7769444,E,https://metrarail.com/maps-schedules/train-lines/UP-N/stations/RAVINIAPK,1
INDIANHILL,Indian Hill,42.0944444,-87.7238889,D,https://metrarail.com/maps-schedules/train-lines/UP-N/stations/INDIANHILL,0
KENOSHA,Kenosha,42.5858333,-87.8258333,J,https://metrarail.com/maps-schedules/train-lines/UP-N/stations/KENOSHA,1
HARVARD,Harvard,42.4197222,-88.6175,J,https://metrarail.com/maps-schedules/train-lines/UP-NW/stations/HARVARD,1
WOODSTOCK,Woodstock,42.3169444,-88.4475,J,https://metrarail.com/maps-schedules/train-lines/UP-NW/stations/WOODSTOCK,1
CRYSTAL,Crystal Lake,42.2441667,-88.3172222,I,https://metrarail.com/maps-schedules/train-lines/UP-NW/stations/CRYSTAL,1
MCHENRY,McHenry,42.3433333,-88.2761111,J,https://metrarail.com/maps-schedules/train-lines/UP-NW/stations/MCHENRY,1
CARY,Cary,42.2088889,-88.2413889,H,https://metrarail.com/maps-schedules/train-lines/UP-NW/stations/CARY,1
FOXRG,Fox River Grove,42.1977778,-88.2194444,H,https://metrarail.com/maps-schedules/train-lines/UP-NW/stations/FOXRG,1
BARRINGTON,Barrington,42.1527778,-88.1319444,G,https://metrarail.com/maps-schedules/train-lines/UP-NW/stations/BARRINGTON,1
PALATINE,Palatine,42.1130556,-88.0483333,F,https://metrarail.com/maps-schedules/train-lines/UP-NW/stations/PALATINE,1
ARLINGTNPK,Arlington Park,42.0952778,-88.0091667,E,https://metrarail.com/maps-schedules/train-lines/UP-NW/stations/ARLINGTNPK,1
ARLINGTNHT,Arlington Heights,42.0841667,-87.9836111,E,https://metrarail.com/maps-schedules/train-lines/UP-NW/stations/ARLINGTNHT,1
MTPROSPECT,Mt. Prospect,42.0630556,-87.9361111,D,https://metrarail.com/maps-schedules/train-lines/UP-NW/stations/MTPROSPECT,1
CUMBERLAND,Cumberland,42.0525,-87.9122222,D,https://metrarail.com/maps-schedules/train-lines/UP-NW/stations/CUMBERLAND,0
DESPLAINES,Des Plaines,42.0408333,-87.8866667,D,https://metrarail.com/maps-schedules/train-lines/UP-NW/stations/DESPLAINES,1
DEEROAD,Dee Road,42.0241667,-87.8561111,C,https://metrarail.com/maps-schedules/train-lines/UP-NW/stations/DEEROAD,1
PARKRIDGE,Park Ridge,42.0102778,-87.8316667,C,https://metrarail.com/maps-schedules/train-lines/UP-NW/stations/PARKRIDGE,1
IRVINGPK,Irving Park,41.9525,-87.7297222,B,https://metrarail.com/maps-schedules/train-lines/UP-NW/stations/IRVINGPK,1
BIGTIMBER,Big Timber,42.0586111,-88.3277778,H,https://metrarail.com/maps-schedules/train-lines/MD-W/stations/BIGTIMBER,1
ELGIN,Elgin,42.0361111,-88.2861111,H,https://metrarail.com/maps-schedules/train-lines/MD-W/stations/ELGIN,1
NATIONALS,National St,42.0263889,-88.2788889,H,https://metrarail.com/maps-schedules/train-lines/MD-W/stations/NATIONALS,1
HANOVERP,Hanover Park,41.9880556,-88.1491667,F,https://metrarail.com/maps-schedules/train-lines/MD-W/stations/HANOVERP,1
SCHAUM,Schaumburg,41.9891667,-88.1180556,F,https://metrarail.com/maps-schedules/train-lines/MD-W/stations/SCHAUM,1
ROSELLE,Roselle,41.9813889,-88.0672222,E,https://metrarail.com/maps-schedules/train-lines/MD-W/stations/ROSELLE,1
MEDINAH,Medinah,41.9780556,-88.0508333,E,https://metrarail.com/maps-schedules/train-lines/MD-W/stations/MEDINAH,1
ITASCA,Itasca,41.9713889,-88.0141667,E,https://metrarail.com/maps-schedules/train-lines/MD-W/stations/ITASCA,1
WOODDALE,Wood Dale,41.9625,-87.9752778,D,https://metrarail.com/maps-schedules/train-lines/MD-W/stations/WOODDALE,1
BENSENVIL,Bensenville,41.9569444,-87.9419444,D,https://metrarail.com/maps-schedules/train-lines/MD-W/stations/BENSENVIL,1
MANNHEIM,Mannheim,41.9416667,-87.8833333,C,https://metrarail.com/maps-schedules/train-lines/MD-W/stations/MANNHEIM,0
FRANKLIN,Franklin Park,41.9366667,-87.8663889,C,https://metrarail.com/maps-schedules/train-lines/MD-W/stations/FRANKLIN,1
MONTCLARE,Mont Clare,41.9216667,-87.8016667,B,https://metrarail.com/maps-schedules/train-lines/MD-W/stations/MONTCLARE,1
MARS,Mars,41.9191667,-87.7944444,B,https://metrarail.com/maps-schedules/train-lines/MD-W/stations/MARS,1
GALEWOOD,Galewood,41.9163889,-87.7858333,B,https://metrarail.com/maps-schedules/train-lines/MD-W/stations/GALEWOOD,1
HANSONPK,Hanson Park,41.9166667,-87.7669444,B,https://metrarail.com/maps-schedules/train-lines/MD-W/stations/HANSONPK,0
GRAND-CIC,Grand/Cicero,41.9144444,-87.7461111,B,https://metrarail.com/maps-schedules/train-lines/MD-W/stations/GRAND-CIC,0
OHARE,O'Hare Transfer,41.995,-87.8805556,D,https://metrarail.com/maps-schedules/train-lines/NCS/stations/OHARE,1
PROSPECTHG,Prospect Hts,42.0922222,-87.9080556,E,https://metrarail.com/maps-schedules/train-lines/NCS/stations/PROSPECTHG,1
WHEELING,Wheeling,42.1363889,-87.9272222,F,https://metrarail.com/maps-schedules/train-lines/NCS/stations/WHEELING,1
BUFFGROVE,Buffalo Grove,42.1686111,-87.9413889,F,https://metrarail.com/maps-schedules/train-lines/NCS/stations/BUFFGROVE,1
PRAIRIEVW,Prairie View,42.1980556,-87.9558333,G,https://metrarail.com/maps-schedules/train-lines/NCS/stations/PRAIRIEVW,1
VERNON,Vernon Hills,42.2155556,-87.9644444,G,https://metrarail.com/maps-schedules/train-lines/NCS/stations/VERNON,1
MUNDELEIN,Mundelein,42.2669444,-87.9980556,H,https://metrarail.com/maps-schedules/train-lines/NCS/stations/MUNDELEIN,1
PRAIRCROSS,Prairie Crossing.,42.3180556,-88.0172222,H,https://metrarail.com/maps-schedules/train-lines/MD-N/stations/PRAIRCROSS,1
ROUNDLKBCH,Round Lake Beach,42.385,-88.0655556,J,https://metrarail.com/maps-schedules/train-lines/NCS/stations/ROUNDLKBCH,1
LAKEVILLA,Lake Villa,42.4175,-88.0794444,J,https://metrarail.com/maps-schedules/train-lines/NCS/stations/LAKEVILLA,1
ANTIOCH,Antioch,42.4811111,-88.0925,J,https://metrarail.com/maps-schedules/train-lines/NCS/stations/ANTIOCH,1
NEWLENOX,New Lenox,41.5144444,-87.9652778,G,https://metrarail.com/maps-schedules/train-lines/RI/stations/NEWLENOX,1
MOKENA,Mokena,41.5308333,-87.8866667,F,https://metrarail.com/maps-schedules/train-lines/RI/stations/MOKENA,1
HICKORYCRK,Hickory Creek,41.5486111,-87.8455556,F,https://metrarail.com/maps-schedules/train-lines/RI/stations/HICKORYCRK,1
TINLEY80TH,Tinley-80th,41.5644444,-87.8094444,E,https://metrarail.com/maps-schedules/train-lines/RI/stations/TINLEY80TH,1
TINLEYPARK,Tinley Park,41.5758333,-87.7827778,E,https://metrarail.com/maps-schedules/train-lines/RI/stations/TINLEYPARK,1
OAKFOREST,Oak Forest,41.6044444,-87.7383333,E,https://metrarail.com/maps-schedules/train-lines/RI/stations/OAKFOREST,1
MIDLOTHIAN,Midlothian,41.6263889,-87.7116667,D,https://metrarail.com/maps-schedules/train-lines/RI/stations/MIDLOTHIAN,1
ROBBINS,Robbins,41.6408333,-87.6944444,D,https://metrarail.com/maps-schedules/train-lines/RI/stations/ROBBINS,1
KENSINGTN,Kensington,41.6858333,-87.6122222,C,https://metrarail.com/maps-schedules/train-lines/ME/stations/KENSINGTN,1
59TH-UP,59th St. (U. of Chicago),41.7880556,-87.5886111,B,https://metrarail.com/maps-schedules/train-lines/ME/stations/59TH-UP,0
UNIVERSITY,University Park,41.4594444,-87.7233333,G,https://metrarail.com/maps-schedules/train-lines/ME/stations/UNIVERSITY,1
RICHTON,Richton Park,41.4855556,-87.7094444,F,https://metrarail.com/maps-schedules/train-lines/ME/stations/RICHTON,1
MATTESON,Matteson,41.4986111,-87.7022222,F,https://metrarail.com/maps-schedules/train-lines/ME/stations/MATTESON,0
211TH-UP,211th St.,41.5061111,-87.6983333,F,https://metrarail.com/maps-schedules/train-lines/ME/stations/211TH-UP,1
OLYMPIA,Olympia Fields,41.5213889,-87.69,F,https://metrarail.com/maps-schedules/train-lines/ME/stations/OLYMPIA,0
FLOSSMOOR,Flossmoor,41.5430556,-87.6786111,E,https://metrarail.com/maps-schedules/train-lines/ME/stations/FLOSSMOOR,1
HOMEWOOD,Homewood,41.5622222,-87.6686111,E,https://metrarail.com/maps-schedules/train-lines/ME/stations/HOMEWOOD,1
CALUMET,Calumet,41.5736111,-87.6625,E,https://metrarail.com/maps-schedules/train-lines/ME/stations/CALUMET,1
EDISONPK,Edison Park,42.0022222,-87.8175,C,https://metrarail.com/maps-schedules/train-lines/UP-NW/stations/EDISONPK,1
NORWOODP,Norwood Park,41.9916667,-87.7988889,C,https://metrarail.com/maps-schedules/train-lines/UP-NW/stations/NORWOODP,1
GLADSTONEP,Gladstone Park,41.9797222,-87.7780556,B,https://metrarail.com/maps-schedules/train-lines/UP-NW/stations/GLADSTONEP,0
JEFFERSONP,Jefferson Park,41.9713889,-87.7633333,B,https://metrarail.com/maps-schedules/train-lines/UP-NW/stations/JEFFERSONP,1
BARTLETT,Bartlett,41.9922222,-88.1838889,F,https://metrarail.com/maps-schedules/train-lines/MD-W/stations/BARTLETT,1
47TH-UP,47th St. (Kenwood),41.8097222,-87.5913889,B,https://metrarail.com/maps-schedules/train-lines/ME/stations/47TH-UP,0
51ST-53RD,51st/53rd St. (Hyde Park),41.8,-87.5869444,B,https://metrarail.com/maps-schedules/train-lines/ME/stations/51ST-53RD,1
55-56-57TH,55th - 56th - 57th St.,41.7933333,-87.5875,B,https://metrarail.com/maps-schedules/train-lines/ME/stations/55-56-57TH,1
63RD-UP,63rd St.,41.7802778,-87.5905556,B,https://metrarail.com/maps-schedules/train-lines/ME/stations/63RD-UP,0
PRAIRIEXNG,Prairie Crossing,42.3208333,-88.0152778,H,https://metrarail.com/maps-schedules/train-lines/MD-N/stations/PRAIRIEXNG,1
RIVERGROVE,River Grove,41.9311111,-87.8361111,C,https://metrarail.com/maps-schedules/train-lines/MD-W/stations/RIVERGROVE,1
ELMWOODPK,Elmwood Park,41.9247222,-87.8147222,C,https://metrarail.com/maps-schedules/train-lines/MD-W/stations/ELMWOODPK,1
RIVERDALE,Riverdale,41.6466667,-87.6233333,D,https://metrarail.com/maps-schedules/train-lines/ME/stations/RIVERDALE,0
IVANHOE,Ivanhoe,41.6333333,-87.6302778,D,https://metrarail.com/maps-schedules/train-lines/ME/stations/IVANHOE,1
147TH-UP,147th St.,41.6227778,-87.6361111,D,https://metrarail.com/maps-schedules/train-lines/ME/stations/147TH-UP,0
HARVEY,Harvey,41.6083333,-87.6438889,D,https://metrarail.com/maps-schedules/train-lines/ME/stations/HARVEY,1
HAZELCREST,Hazel Crest,41.5808333,-87.6586111,E,https://metrarail.com/maps-schedules/train-lines/ME/stations/HAZELCREST,0
MILLENNIUM,Millennium Station,41.8841667,-87.6230556,A,https://metrarail.com/maps-schedules/train-lines/ME/stations/MILLENNIUM,1
VANBUREN,Van Buren St.,41.8769444,-87.6230556,A,https://metrarail.com/maps-schedules/train-lines/ME/stations/VANBUREN,1
MUSEUM,Museum Campus/11th St.,41.8686111,-87.6213889,A,https://metrarail.com/maps-schedules/train-lines/ME/stations/MUSEUM,1
18TH-UP,18th St.,41.8583333,-87.6180556,A,https://metrarail.com/maps-schedules/train-lines/ME/stations/18TH-UP,0
MCCORMICK,McCormick Place,41.8513889,-87.6163889,A,https://metrarail.com/maps-schedules/train-lines/ME/stations/MCCORMICK,1
27TH-UP,27th St.,41.8441667,-87.6133333,A,https://metrarail.com/maps-schedules/train-lines/ME/stations/27TH-UP,0
75TH-UP,75th St. (Grand Crossing),41.7588889,-87.5952778,B,https://metrarail.com/maps-schedules/train-lines/ME/stations/75TH-UP,0
79TH-UP,79th St. (Chatham),41.7508333,-87.5972222,B,https://metrarail.com/maps-schedules/train-lines/ME/stations/79TH-UP,1
83RD-UP,83rd St. (Avalon Park),41.7441667,-87.5986111,B,https://metrarail.com/maps-schedules/train-lines/ME/stations/83RD-UP,0
87TH-UP,87th St. (Woodruff),41.7369444,-87.6002778,B,https://metrarail.com/maps-schedules/train-lines/ME/stations/87TH-UP,0
91ST-UP,91st St.,41.7294444,-87.6019444,C,https://metrarail.com/maps-schedules/train-lines/ME/stations/91ST-UP,0
95TH-UP,95th St.,41.7219444,-87.6038889,C,https://metrarail.com/maps-schedules/train-lines/ME/stations/95TH-UP,0
103RD-UP,103rd St. (Rosemoor),41.7069444,-87.6072222,C,https://metrarail.com/maps-schedules/train-lines/ME/stations/103RD-UP,0
107TH-UP,107th St.,41.6997222,-87.6088889,C,https://metrarail.com/maps-schedules/train-lines/ME/stations/107TH-UP,0
111TH-UP,111th St. (Pullman),41.6927778,-87.6105556,C,https://metrarail.com/maps-schedules/train-lines/ME/stations/111TH-UP,0
STONYISLND,Stony Island,41.7661111,-87.5869444,B,https://metrarail.com/maps-schedules/train-lines/ME/stations/STONYISLND,1
BRYNMAWR,Bryn Mawr,41.7661111,-87.5766667,B,https://metrarail.com/maps-schedules/train-lines/ME/stations/BRYNMAWR,1
SOUTHSHORE,South Shore,41.7652778,-87.5658333,B,https://metrarail.com/maps-schedules/train-lines/ME/stations/SOUTHSHORE,1
WINDSORPK,Windsor Park,41.7586111,-87.5594444,B,https://metrarail.com/maps-schedules/train-lines/ME/stations/WINDSORPK,1
79TH-SC,Cheltenham (79th St.),41.7522222,-87.5525,B,https://metrarail.com/maps-schedules/train-lines/ME/stations/79TH-SC,1
83RD-SC,83rd St.,41.745,-87.5516667,B,https://metrarail.com/maps-schedules/train-lines/ME/stations/83RD-SC,1
87TH-SC,87th St.,41.7377778,-87.5483333,B,https://metrarail.com/maps-schedules/train-lines/ME/stations/87TH-SC,1
93RD-SC,South Chicago (93rd),41.7266667,-87.5477778,B,https://metrarail.com/maps-schedules/train-lines/ME/stations/93RD-SC,1
LSS,LaSalle Street,41.8763889,-87.6322222,A,https://metrarail.com/maps-schedules/train-lines/RI/stations/LSS,1
GRESHAM,Gresham,41.7363889,-87.6447222,B,https://metrarail.com/maps-schedules/train-lines/RI/stations/GRESHAM,0
VERMONT,Blue Island-Vermont,41.6547222,-87.6777778,D,https://metrarail.com/maps-schedules/train-lines/RI/stations/VERMONT,1
LONGWOOD,95th St.-Longwood,41.7211111,-87.6502778,C,https://metrarail.com/maps-schedules/train-lines/RI/stations/LONGWOOD,1
WASHHGTS,103rd St.-Washington Hts.,41.7055556,-87.6558333,C,https://metrarail.com/maps-schedules/train-lines/RI/stations/WASHHGTS,1
BRAINERD,Brainerd,41.7322222,-87.6588889,C,https://metrarail.com/maps-schedules/train-lines/RI/stations/BRAINERD,1
91ST-BEV,91st St. - Beverly Hills,41.7280556,-87.6672222,C,https://metrarail.com/maps-schedules/train-lines/RI/stations/91ST-BEV,1
PRAIRIEST,Prairie St.,41.6625,-87.675,D,https://metrarail.com/maps-schedules/train-lines/RI/stations/PRAIRIEST,0
123RD-BEV,123rd St.,41.67,-87.6736111,C,https://metrarail.com/maps-schedules/train-lines/RI/stations/123RD-BEV,0
119TH-BEV,119th St.,41.6763889,-87.6725,C,https://metrarail.com/maps-schedules/train-lines/RI/stations/119TH-BEV,1
115TH-BEV,115th St. - Morgan Park,41.685,-87.6716667,C,https://metrarail.com/maps-schedules/train-lines/RI/stations/115TH-BEV,1
111TH-BEV,111th St. - Morgan Park,41.6927778,-87.6705556,C,https://metrarail.com/maps-schedules/train-lines/RI/stations/111TH-BEV,1
107TH-BEV,107th St. - Beverly Hills,41.6988889,-87.67,C,https://metrarail.com/maps-schedules/train-lines/RI/stations/107TH-BEV,1
103RD-BEV,103rd St. - Beverly Hills,41.7061111,-87.6688889,C,https://metrarail.com/maps-schedules/train-lines/RI/stations/103RD-BEV,1
99TH-BEV,99th St. - Beverly Hills,41.7136111,-87.6675,C,https://metrarail.com/maps-schedules/train-lines/RI/stations/99TH-BEV,1
95TH-BEV,95th St. - Beverly Hills,41.7213889,-87.6672222,C,https://metrarail.com/maps-schedules/train-lines/RI/stations/95TH-BEV,1
BLUEISLAND,Blue Island,41.6561111,-87.6758333,D,https://metrarail.com/maps-schedules/train-lines/ME/stations/BLUEISLAND,1
BURROAK,Burr Oak,41.6622222,-87.6688889,D,https://metrarail.com/maps-schedules/train-lines/ME/stations/BURROAK,0
ASHLAND,Ashland,41.6694444,-87.6605556,C,https://metrarail.com/maps-schedules/train-lines/ME/stations/ASHLAND,0
RACINE,Racine,41.6741667,-87.6519444,C,https://metrarail.com/maps-schedules/train-lines/ME/stations/RACINE,0
WPULLMAN,West Pullman,41.6741667,-87.6422222,C,https://metrarail.com/maps-schedules/train-lines/ME/stations/WPULLMAN,0
STEWARTRID,Stewart Ridge,41.6744444,-87.6316667,C,https://metrarail.com/maps-schedules/train-lines/ME/stations/STEWARTRID,0
STATEST,State St.,41.6744444,-87.6219444,C,https://metrarail.com/maps-schedules/train-lines/ME/stations/STATEST,0
SCHILLERPK,Schiller Park,41.9627778,-87.8705556,C,https://metrarail.com/maps-schedules/train-lines/NCS/stations/SCHILLERPK,1
PALOSHTS,Palos Heights,41.6819444,-87.8069444,D,https://metrarail.com/maps-schedules/train-lines/SWS/stations/PALOSHTS,1
PINGREE,Pingree Road,42.2341667,-88.2980556,I,https://metrarail.com/maps-schedules/train-lines/UP-NW/stations/PINGREE,1
CUS,Chicago Union Station,41.8788889,-87.6388889,A,https://metrarail.com/maps-schedules/system-map,1
OTC,Chicago OTC,41.8822222,-87.6405556,A,https://metrarail.com/maps-schedules/system-map,1
LARAWAY,Laraway Road,41.4847222,-87.9597222,H,https://metrarail.com/maps-schedules/train-lines/SWS/stations/LARAWAY,1
MANHATTAN,Manhattan,41.4183333,-87.9891667,I,https://metrarail.com/maps-schedules/train-lines/SWS/stations/MANHATTAN,1
NCSGRAYSLK,Washington St (Grayslake),42.3591667,-88.0505556,I,https://metrarail.com/maps-schedules/train-lines/NCS/stations/NCSGRAYSLK,1
ROSEMONT,Rosemont,41.9761111,-87.8738889,D,https://metrarail.com/maps-schedules/train-lines/NCS/stations/ROSEMONT,1
FRANKLINPK,Franklin Pk,41.9377778,-87.86,C,https://metrarail.com/maps-schedules/train-lines/NCS/stations/FRANKLINPK,1
LAFOX,La Fox,41.8866667,-88.4122222,I,https://metrarail.com/maps-schedules/train-lines/UP-W/stations/LAFOX,1
ELBURN,Elburn,41.8905556,-88.4638889,I,https://metrarail.com/maps-schedules/train-lines/UP-W/stations/ELBURN,1
35TH,35th St. - Lou Jones,41.8313889,-87.6291667,A,https://metrarail.com/maps-schedules/train-lines/RI/stations/35TH,1
ROMEOVILLE,Romeoville,41.6372222,-88.0494444,F,https://metrarail.com/maps-schedules/train-lines/HC/stations/ROMEOVILLE,1
